{
"type": "FeatureCollection",
"name": "lisboa_aire_2025-11-20",
"crs": { "type": "name", "properties": { "name": "urn:ogc:def:crs:OGC:1.3:CRS84" } },
"features": [
{ "type": "Feature", "properties": { "nombre": "Lisboa - Av. da Liberdade", "tipo": "Tráfico Intenso", "NO2_ug_m3": 11.8, "PM25_ug_m3": 7.11, "Calidad_Desc": "Buena", "Fecha_Datos": "2025-11-20" }, "geometry": { "type": "Point", "coordinates": [ -9.14611, 38.71944 ] } },
{ "type": "Feature", "properties": { "nombre": "Lisboa - Olivais", "tipo": "Residencial", "NO2_ug_m3": 11.8, "PM25_ug_m3": 7.11, "Calidad_Desc": "Buena", "Fecha_Datos": "2025-11-20" }, "geometry": { "type": "Point", "coordinates": [ -9.10833, 38.77111 ] } },
{ "type": "Feature", "properties": { "nombre": "Lisboa - Entrecampos", "tipo": "Tráfico", "NO2_ug_m3": 11.8, "PM25_ug_m3": 7.11, "Calidad_Desc": "Buena", "Fecha_Datos": "2025-11-20" }, "geometry": { "type": "Point", "coordinates": [ -9.15306, 38.74833 ] } },
{ "type": "Feature", "properties": { "nombre": "Lisboa - Benfica", "tipo": "Residencial", "NO2_ug_m3": 11.8, "PM25_ug_m3": 7.11, "Calidad_Desc": "Buena", "Fecha_Datos": "2025-11-20" }, "geometry": { "type": "Point", "coordinates": [ -9.19694, 38.75639 ] } },
{ "type": "Feature", "properties": { "nombre": "Lisboa - Restelo", "tipo": "Zona Limpia", "NO2_ug_m3": 7.44, "PM25_ug_m3": 6.97, "Calidad_Desc": "Buena", "Fecha_Datos": "2025-11-20" }, "geometry": { "type": "Point", "coordinates": [ -9.21917, 38.70778 ] } },
{ "type": "Feature", "properties": { "nombre": "Amadora - Centro", "tipo": "Periferia", "NO2_ug_m3": 7.44, "PM25_ug_m3": 6.97, "Calidad_Desc": "Buena", "Fecha_Datos": "2025-11-20" }, "geometry": { "type": "Point", "coordinates": [ -9.2237, 38.7595 ] } },
{ "type": "Feature", "properties": { "nombre": "Parque das Nações", "tipo": "Moderna/Rio", "NO2_ug_m3": 8.91, "PM25_ug_m3": 6.87, "Calidad_Desc": "Buena", "Fecha_Datos": "2025-11-20" }, "geometry": { "type": "Point", "coordinates": [ -9.0946, 38.7684 ] } }
]
}
